{
	"pois": [
		{
			"name": "cafe 07 am",
			"type": "카페",
			"image": "커피숍",
			"latitude": 37.714779,
			"longitude": 126.741800,
			"address": "경기 파주시 와석순환로192번길 14-38 1층 카페.07.am",
			"description": "영업시간: 09시~20시",
			"coupon": "10%"
		},
		{
			"name": "더브래드36.5도",
			"type": "식당",
			"image": "빵집",
			"latitude": 37.714677,
			"longitude": 126.741665,
			"address": "경기 파주시 와석순환로192번길 14-43",
			"description": "영업시간: 09시~20시",
			"coupon": "10%"
		},
		{
			"name": "포토존",
			"type": "포토존",
			"image": "뚝밲쓰",
			"latitude": 37.714145,
			"longitude": 126.741080,
			"address": "경기 파주시 와석순환로172번길 3",
			"description": "영업시간: 09시~20시",
			"coupon": "10%"
		},
		{
			"name": "경준병원",
			"type": "병원",
			"image": "돈가쓰",
			"latitude": 37.714277,
			"longitude": 126.740820,
			"address": "경기 파주시 와석순환로172번길 3",
			"description": "영업시간: 09시~20시",
			"coupon": "10%"
		},
		{
			"name": "경기인력개발원",
			"type": "공공기관",
			"image": "개발원",
			"latitude": 37.713675,
			"longitude": 126.743572,
			"address": "경기 파주시 와석순환로172번길 16",
			"description": "영업시간: 09시~20시",
			"coupon": "10%"
		}
	]
}